,City,Lat,Lon,Max Temp,Humidity,Cloudiness,Wind Speed,Country,Date
0,Casablanca,33.5928,-7.6192,61.02,63,21,11.01,MA,1650406879
1,Olovyannaya,50.95,115.5667,39.4,46,100,16.55,RU,1650406879
2,Lavrentiya,65.5833,-171.0,29.07,74,3,6.15,RU,1650406880
3,Ubinskoye,55.3068,79.6802,36.48,63,100,6.8,RU,1650406880
4,New Norfolk,-42.7826,147.0587,56.7,76,97,3.11,AU,1650406881
5,Arraial do Cabo,-22.9661,-42.0278,73.26,78,0,2.3,BR,1650406881
6,Mookane,-23.688,26.6595,62.83,70,78,6.51,BW,1650406881
7,Barrow,71.2906,-156.7887,10.42,79,0,12.66,US,1650406882
8,Batemans Bay,-35.7167,150.1833,63.1,89,92,1.52,AU,1650406882
9,Alhadas,40.1861,-8.7906,54.12,70,7,24.2,PT,1650406883
10,Alice Springs,-23.7,133.8833,49.55,62,6,0.0,AU,1650406812
11,Busselton,-33.65,115.3333,53.53,87,0,10.22,AU,1650406585
12,College,64.8569,-147.8028,45.09,28,0,13.8,US,1650406884
13,Ābdānān,32.9926,47.4198,70.21,20,100,1.54,IR,1650406884
14,Kapaa,22.0752,-159.319,78.78,72,40,20.71,US,1650406885
15,Cape Town,-33.9258,18.4232,70.12,60,0,4.0,ZA,1650406885
16,Rikitea,-23.1203,-134.9692,77.7,75,55,17.0,PF,1650406886
17,Los Llanos de Aridane,28.6585,-17.9182,60.55,78,100,19.57,ES,1650406735
18,Saint Paul Harbor,57.79,-152.4072,40.51,75,100,14.97,US,1650406886
19,Castro,-24.7911,-50.0119,59.41,83,0,3.11,BR,1650406886
20,Codrington,-38.2667,141.9667,54.37,93,65,6.53,AU,1650406737
21,Bluff,-46.6,168.3333,56.8,79,100,8.79,NZ,1650406887
22,Hobart,-42.8794,147.3294,57.06,82,20,9.22,AU,1650406708
23,Punta Arenas,-53.15,-70.9167,46.51,66,0,11.5,CL,1650406887
24,Ikirun,7.9167,4.6667,75.18,89,100,4.29,NG,1650406888
25,Rocha,-34.4833,-54.3333,66.33,77,78,10.2,UY,1650406888
26,Fairbanks,64.8378,-147.7164,45.09,28,0,13.8,US,1650406888
27,Saint George,37.1041,-113.5841,88.39,6,0,29.93,US,1650406889
28,Butaritari,3.0707,172.7902,81.57,75,70,17.07,KI,1650406889
29,Faanui,-16.4833,-151.75,81.43,68,3,5.99,PF,1650406776
30,Ponta do Sol,32.6667,-17.1,61.72,62,9,12.33,PT,1650406889
31,Lebu,-37.6167,-73.65,54.59,94,100,0.43,CL,1650406890
32,Mataura,-46.1927,168.8643,55.47,69,100,3.42,NZ,1650406783
33,Vallenar,-28.5708,-70.7581,69.12,39,2,7.11,CL,1650406890
34,Albany,42.6001,-73.9662,42.58,65,58,1.01,US,1650406890
35,Clyde River,70.4692,-68.5914,-9.17,77,75,5.75,CA,1650406891
36,Najrān,17.4924,44.1277,74.05,22,6,1.86,SA,1650406891
37,Mossamedes,-15.1961,12.1522,74.88,80,100,1.57,AO,1650406892
38,Kavieng,-2.5744,150.7967,83.66,70,93,12.21,PG,1650406892
39,Jamestown,42.097,-79.2353,35.71,75,100,23.02,US,1650406743
40,Cayenne,4.9333,-52.3333,76.08,1,75,4.61,GF,1650406892
41,Leningradskiy,69.3833,178.4167,23.27,84,71,5.21,RU,1650406893
42,Araouane,18.9048,-3.5265,80.4,8,1,7.4,ML,1650406893
43,Bredasdorp,-34.5322,20.0403,60.96,88,0,2.39,ZA,1650406894
44,Karpogory,64.0019,44.4451,33.55,100,100,3.96,RU,1650406894
45,Hamilton,39.1834,-84.5333,52.88,46,40,13.8,US,1650406851
46,Hermanus,-34.4187,19.2345,65.8,71,3,10.07,ZA,1650406782
47,Te Anau,-45.4167,167.7167,55.56,71,100,2.44,NZ,1650406954
48,Cherskiy,68.75,161.3,26.26,82,14,8.66,RU,1650406955
49,Hay River,60.8156,-115.7999,26.58,43,20,11.5,CA,1650406955
50,Ushuaia,-54.8,-68.3,47.86,66,40,10.36,AR,1650406955
51,Aloleng,16.1307,119.7824,80.01,72,10,6.06,PH,1650406956
52,Airai,-8.9266,125.4092,58.95,72,37,2.42,TL,1650406921
53,Viedma,-40.8135,-62.9967,67.64,25,75,8.21,AR,1650406956
54,Vanavara,60.34,102.2797,24.58,95,100,6.69,RU,1650406956
55,Brae,60.3964,-1.353,45.16,87,3,4.45,GB,1650406957
56,Bitung,1.4451,125.1824,77.85,82,93,2.24,ID,1650406957
57,Honningsvåg,70.9821,25.9704,35.35,93,98,6.91,NO,1650406957
58,Presidencia Roque Sáenz Peña,-26.7852,-60.4388,70.09,62,0,7.52,AR,1650406958
59,Souillac,-20.5167,57.5167,79.18,94,40,6.91,MU,1650406669
60,Saint-Philippe,-21.3585,55.7679,78.39,81,47,4.65,RE,1650406854
61,Nouadhibou,20.931,-17.0347,67.98,77,100,17.27,MR,1650406958
62,Yar-Sale,66.8333,70.8333,27.7,92,100,8.77,RU,1650406958
63,Rujewa,-8.7,34.3833,66.9,77,94,8.03,TZ,1650406959
64,Caucayá,-0.1934,-74.7819,73.29,95,100,1.23,CO,1650406959
65,Pisco,-13.7,-76.2167,69.85,73,0,17.27,PE,1650406959
66,Hithadhoo,-0.6,73.0833,83.08,70,100,6.02,MV,1650406960
67,Constitución,-35.3333,-72.4167,58.23,86,100,5.23,CL,1650406960
68,Kemijärvi,66.7131,27.4306,38.34,96,8,2.55,FI,1650406960
69,Port Alfred,-33.5906,26.891,67.17,89,76,1.99,ZA,1650406961
70,Mikun',62.3547,50.0771,32.95,99,100,4.74,RU,1650406815
71,Tasiilaq,65.6145,-37.6368,33.96,83,100,13.91,GL,1650406926
72,Malko Tarnovo,41.9833,27.5333,34.02,97,22,4.56,BG,1650406961
73,Yellowknife,62.456,-114.3525,30.72,31,20,9.22,CA,1650406961
74,Cidreira,-30.1811,-50.2056,68.14,82,0,9.73,BR,1650406736
75,Elko,41.0002,-115.5012,44.62,72,100,7.0,US,1650406693
76,Alyangula,-13.8483,136.4192,80.87,79,53,12.15,AU,1650406962
77,Ozernovskiy,51.5,156.5167,30.27,80,82,9.53,RU,1650406962
78,Langxiang,46.95,128.8833,54.19,38,47,6.51,CN,1650406963
79,Kruisfontein,-34.0033,24.7314,62.89,94,2,6.38,ZA,1650406963
80,Puerto Ayora,-0.7393,-90.3518,78.76,84,85,8.7,EC,1650406668
81,Iskateley,67.6803,53.1512,20.19,87,88,13.56,RU,1650406963
82,São Luiz Gonzaga,-28.4083,-54.9608,65.91,73,0,6.22,BR,1650406964
83,Talnakh,69.4865,88.3972,-4.86,99,97,1.41,RU,1650406964
84,Amsterdam,52.374,4.8897,53.89,68,0,13.8,NL,1650406964
85,Tateyama,34.9833,139.8667,55.33,82,75,3.44,JP,1650406965
86,Carutapera,-1.195,-46.02,77.54,86,74,4.5,BR,1650406965
87,Hīrna,9.2167,41.1,66.34,55,65,6.24,ET,1650406965
88,Taoudenni,22.6783,-3.9836,84.6,9,81,5.93,ML,1650406966
89,Algiers,36.7525,3.042,60.62,72,40,4.61,DZ,1650406966
90,Hilo,19.7297,-155.09,84.27,65,40,11.5,US,1650406969
91,‘Ewa Beach,21.3156,-158.0072,80.55,62,40,18.41,US,1650406876
92,Dunedin,-45.8742,170.5036,57.79,76,99,5.01,NZ,1650406764
93,Boende,-0.2167,20.8667,72.03,97,99,0.92,CD,1650407027
94,Hasaki,35.7333,140.8333,52.29,61,94,11.61,JP,1650407027
95,Ostrovnoy,68.0531,39.5131,30.9,79,100,8.28,RU,1650406869
96,Vilhena,-12.7406,-60.1458,80.82,65,0,4.61,BR,1650406833
97,Chokurdakh,70.6333,147.9167,14.34,93,93,5.17,RU,1650406975
98,Vaini,-21.2,-175.2,77.16,94,75,10.36,TO,1650406980
99,Kumul,42.8,93.45,61.59,15,100,5.73,CN,1650407031
100,San Patricio,28.017,-97.5169,76.89,75,100,23.22,US,1650407031
101,Okhotsk,59.3833,143.3,26.8,92,100,22.24,RU,1650406885
102,Deloraine,-41.5333,146.6667,54.36,15,80,2.64,AU,1650407032
103,São João da Barra,-21.6403,-41.0511,74.03,79,37,8.86,BR,1650407032
104,Nanortalik,60.1432,-45.2371,26.85,57,2,30.47,GL,1650407032
105,Coyhaique,-45.5752,-72.0662,47.01,71,40,3.44,CL,1650407033
106,Nago,26.5881,127.9761,67.05,74,99,4.72,JP,1650407033
107,Kysyl-Syr,63.8986,122.7617,19.36,95,100,7.18,RU,1650407033
108,Ihosy,-22.4,46.1167,68.9,93,85,4.76,MG,1650407034
109,Havre-St-Pierre,50.2334,-63.5986,32.36,74,100,23.02,CA,1650407034
110,Qaanaaq,77.484,-69.3632,-2.63,79,99,5.7,GL,1650407034
111,Manama,26.2154,50.5832,75.18,66,0,4.61,BH,1650407035
112,Lagoa,39.05,-27.9833,59.31,72,94,10.04,PT,1650407035
113,Treinta y Tres,-33.2333,-54.3833,65.93,64,12,7.72,UY,1650407035
114,Lüderitz,-26.6481,15.1594,74.61,37,0,4.65,NA,1650407036
115,Richards Bay,-28.783,32.0377,63.54,83,0,2.8,ZA,1650407036
116,Kathmandu,27.7167,85.3167,62.82,82,20,3.44,NP,1650407036
117,Bengkulu,-3.8004,102.2655,76.42,89,100,5.64,ID,1650407037
118,Torbay,47.6666,-52.7314,32.29,80,75,11.5,CA,1650407037
119,Ilulissat,69.2167,-51.1,5.02,72,20,12.66,GL,1650407037
120,George Town,5.4112,100.3354,78.73,93,20,3.44,MY,1650407038
121,Zhangaözen,43.3,52.8,63.37,38,11,11.81,KZ,1650407038
122,Avera,33.194,-82.5271,66.54,38,0,8.3,US,1650407038
123,La Providencia,28.7167,-111.5833,95.65,28,77,14.58,MX,1650407038
124,Morogoro,-6.8167,37.6667,68.81,88,98,1.28,TZ,1650407039
125,Natitingou,10.3042,1.3796,83.84,39,96,3.56,BJ,1650407039
126,Malanje,-9.5402,16.341,66.16,95,100,3.15,AO,1650407040
127,Coquimbo,-29.9533,-71.3436,60.53,63,0,11.5,CL,1650407040
128,Disna,55.568,28.1971,44.83,71,84,12.82,BY,1650407040
129,Hualmay,-11.0964,-77.6139,70.07,77,61,10.42,PE,1650407041
130,Sibolga,1.7427,98.7792,75.9,89,100,2.48,ID,1650407041
131,Yangi Marg`ilon,40.4272,71.7189,63.32,77,40,4.61,UZ,1650407041
132,Klaksvík,62.2266,-6.589,45.52,78,7,12.1,FO,1650406973
133,Atuona,-9.8,-139.0333,79.43,72,37,18.77,PF,1650407042
134,Kaitangata,-46.2817,169.8464,57.81,63,99,2.89,NZ,1650407042
135,Benguela,-12.5763,13.4055,75.97,94,100,3.98,AO,1650407042
136,Port Lincoln,-34.7333,135.8667,60.73,83,34,8.08,AU,1650407043
137,Khatanga,71.9667,102.5,-10.88,100,98,4.12,RU,1650406930
138,Broken Hill,-31.95,141.4333,51.51,76,0,1.14,AU,1650407104
139,Araranguá,-28.9347,-49.4858,64.24,85,0,2.53,BR,1650407104
140,Srednekolymsk,67.45,153.6833,25.39,79,17,5.57,RU,1650407104
141,Khovd,48.0056,91.6419,32.67,76,100,14.09,MN,1650407105
142,Port Hedland,-20.3167,118.5667,77.05,44,10,8.05,AU,1650407050
143,Solok,-0.7918,100.6593,71.19,99,100,0.78,ID,1650407105
144,White Rock,49.0164,-122.8026,54.0,68,62,8.99,CA,1650407105
145,Tuatapere,-46.1333,167.6833,57.79,69,100,5.86,NZ,1650406684
146,Bethel,41.3712,-73.414,49.01,53,100,13.8,US,1650407106
147,Saldanha,-33.0117,17.9442,69.37,37,27,8.55,ZA,1650407052
148,Sobolevo,54.4299,31.8996,47.17,85,100,17.81,RU,1650407106
149,Dingle,10.9995,122.6711,75.51,90,46,6.87,PH,1650407106
150,Eugene,44.0521,-123.0867,49.75,81,75,9.22,US,1650407105
151,Thompson,55.7435,-97.8558,30.36,69,75,6.91,CA,1650407037
152,Katsuura,35.1333,140.3,55.42,78,98,13.51,JP,1650407107
153,Provideniya,64.3833,-173.3,33.91,69,0,11.18,RU,1650407059
154,Poli,-3.3333,36.8,62.06,87,97,5.35,TZ,1650407107
155,Grand Gaube,-20.0064,57.6608,79.38,87,100,1.99,MU,1650407108
156,Smithers,54.7804,-127.1743,43.12,49,75,8.05,CA,1650407108
157,East London,-33.0153,27.9116,68.13,83,70,9.42,ZA,1650407108
158,Turan,16.0678,108.2208,73.38,78,75,3.44,VN,1650407109
159,Bandarbeyla,9.4942,50.8122,80.51,73,6,7.47,SO,1650407073
160,Saint Anthony,45.0205,-93.218,47.98,38,75,9.22,US,1650407109
161,Cockburn Town,21.4612,-71.1419,79.29,77,42,6.6,TC,1650407060
162,Tiksi,71.6872,128.8694,1.47,100,100,4.85,RU,1650407110
163,Puerto Carreño,6.189,-67.4859,89.58,58,75,2.3,CO,1650407110
164,Porbandar,21.6422,69.6093,79.66,81,30,13.89,IN,1650407110
165,Neiafu,-18.65,-173.9833,84.88,84,75,9.22,TO,1650407111
166,Zhezkazgan,47.8043,67.7144,49.89,51,37,9.37,KZ,1650407111
167,Bulawayo,-20.15,28.5833,54.41,88,21,13.02,ZW,1650407111
168,Turukhansk,65.8167,87.9833,1.85,98,100,4.0,RU,1650407112
169,Bathsheba,13.2167,-59.5167,79.41,73,20,20.71,BB,1650407112
170,Bissau,11.8636,-15.5977,77.11,69,10,4.61,GW,1650407112
171,Carnduff,49.1667,-101.8009,30.38,85,100,18.37,CA,1650407113
172,Ust-Tsilma,65.441,52.1498,33.85,98,100,8.3,RU,1650407113
173,Aklavik,68.2191,-135.0107,28.4,40,0,8.05,CA,1650407113
174,San Benito,36.6166,-121.0844,62.83,41,85,12.21,US,1650407114
175,Itanhaém,-24.1831,-46.7889,70.79,85,76,3.04,BR,1650407114
176,Kuna,43.4918,-116.4201,57.85,36,0,6.91,US,1650407044
177,Homer,59.6425,-151.5483,46.27,37,0,4.61,US,1650407114
178,Jaltenango,15.8719,-92.7247,96.3,20,7,9.86,MX,1650407115
179,Severo-Kuril'sk,50.6789,156.125,31.41,76,35,14.56,RU,1650407115
180,Juneau,58.3019,-134.4197,48.85,39,75,13.8,US,1650407115
181,Whitehorse,60.7161,-135.0538,37.02,40,75,8.05,CA,1650407027
182,Bara,10.3744,10.7288,84.83,45,68,4.76,NG,1650407116
183,Ribeira Grande,38.5167,-28.7,61.3,71,39,9.19,PT,1650407116
184,Punta Cardon,11.6581,-70.215,81.34,76,92,15.95,VE,1650407116
185,Kungurtug,50.5994,97.5228,28.54,86,100,6.08,RU,1650407117
186,Pascagoula,30.3658,-88.5561,74.41,38,0,6.91,US,1650407177
187,Purpe,64.4803,76.6897,24.82,97,100,8.79,RU,1650407177
188,Ayan,56.45,138.1667,30.11,93,99,14.0,RU,1650407178
189,Zhirnov,48.1709,41.1261,56.86,93,100,5.73,RU,1650407178
190,Mana,5.6592,-53.7767,77.61,89,100,9.8,GF,1650407178
191,Lubumbashi,-11.6609,27.4794,61.5,96,8,2.84,CD,1650407115
192,Ola,59.5833,151.2833,25.14,86,83,5.5,RU,1650407179
193,Slyudyanka,51.6594,103.7061,24.62,89,92,4.47,RU,1650407179
194,Matara,5.9485,80.5353,78.26,89,100,6.76,LK,1650407180
195,Rochester,43.1548,-77.6156,39.34,86,100,19.57,US,1650406980
196,Puerto del Rosario,28.5004,-13.8627,64.15,72,100,27.63,ES,1650407180
197,Mareeba,-17.0,145.4333,74.12,85,51,2.8,AU,1650407180
198,Mount Gambier,-37.8333,140.7667,55.31,94,40,6.91,AU,1650407076
199,Lompoc,34.6391,-120.4579,78.01,70,0,21.0,US,1650407181
200,Taltal,-25.4,-70.4833,62.2,79,78,6.08,CL,1650407181
201,Pangnirtung,66.1451,-65.7125,5.0,61,100,0.0,CA,1650407182
202,Tuktoyaktuk,69.4541,-133.0374,17.6,62,0,4.61,CA,1650407182
203,Saskylakh,71.9167,114.0833,-5.55,100,88,4.5,RU,1650407182
204,Atasū,48.6814,71.6433,46.06,54,62,5.75,KZ,1650407148
205,Sur,22.5667,59.5289,82.6,58,0,10.16,OM,1650407183
206,Lázaro Cárdenas,17.9583,-102.2,83.7,51,1,9.89,MX,1650407183
207,Cape Coast,5.1053,-1.2466,81.14,84,94,5.53,GH,1650407183
208,Mayo,38.8876,-76.5119,51.15,43,75,16.11,US,1650407184
209,Sirsa,29.5333,75.0167,84.24,25,0,5.21,IN,1650407144
210,Egvekinot,66.3167,-179.1667,27.79,81,100,2.33,RU,1650407184
211,Sørland,67.667,12.6934,43.79,87,26,11.99,NO,1650407185
212,Kaeo,-35.1,173.7833,70.32,94,87,12.33,NZ,1650407185
213,Xai-Xai,-25.0519,33.6442,70.79,81,100,14.18,MZ,1650407185
214,Khromtau,50.2503,58.4347,55.42,55,94,3.44,KZ,1650407186
215,Alofi,-19.0595,-169.9187,80.49,83,75,8.05,NU,1650407186
216,San Quintín,30.4833,-115.95,68.31,59,100,23.31,MX,1650407181
217,Laplace,30.0666,-90.4801,74.08,37,0,4.61,US,1650407187
218,Pacific Grove,36.6177,-121.9166,67.68,74,40,10.36,US,1650406891
219,Rāmhormoz,31.28,49.6035,78.21,13,95,4.0,IR,1650407187
220,Beringovskiy,63.05,179.3167,30.63,98,100,4.61,RU,1650407187
221,Balma,43.6111,1.4994,49.91,96,100,9.22,FR,1650407188
222,Batticaloa,7.7102,81.6924,80.91,79,100,1.32,LK,1650407188
223,Port Blair,11.6667,92.75,82.58,73,100,4.36,IN,1650406970
224,Anloga,5.7947,0.8973,82.54,76,100,2.21,GH,1650407188
225,São Filipe,14.8961,-24.4956,71.69,80,56,8.05,CV,1650406999
226,Quatre Cocos,-20.2078,57.7625,79.09,85,97,7.81,MU,1650407189
227,Tual,-5.6667,132.75,83.16,73,84,3.44,ID,1650407189
228,Deputatsky,69.3,139.9,7.81,98,99,2.19,RU,1650407189
229,Eureka,40.8021,-124.1637,58.12,73,61,8.01,US,1650407190
230,Pevek,69.7008,170.3133,17.13,86,30,4.25,RU,1650407190
231,Codajás,-3.8367,-62.0569,76.59,95,100,1.39,BR,1650407250
232,Ahlat,38.7518,42.4814,50.74,59,29,2.33,TR,1650407251
233,Yumen,40.2833,97.2,52.72,11,98,13.47,CN,1650407251
234,Barra,-11.0894,-43.1417,78.58,62,67,4.83,BR,1650407251
235,Vieira de Leiria,39.8695,-8.9324,54.41,71,34,28.5,PT,1650407252
236,Lorengau,-2.0226,147.2712,84.09,72,68,9.04,PG,1650407180
237,Hofn,64.2539,-15.2082,42.82,93,100,8.05,IS,1650407252
238,Arrondissement d'Arcachon,44.5875,-1.0519,50.32,93,100,10.36,FR,1650407252
239,Campoverde,-8.4753,-74.8058,87.49,55,82,2.26,PE,1650407253
240,Dudinka,69.4058,86.1778,-5.87,100,96,3.58,RU,1650407253
241,Pemberton,50.3164,-122.8027,49.69,74,94,4.81,CA,1650407253
242,Udachny,66.4167,112.4,10.45,92,100,6.13,RU,1650407254
243,Bubaque,11.2833,-15.8333,76.35,76,22,13.6,GW,1650407070
244,Kidal,18.4411,1.4078,84.94,8,39,6.2,ML,1650407254
245,Kilimatinde,-5.85,34.95,65.68,80,70,2.53,TZ,1650407254
246,Praia da Vitória,38.7333,-27.0667,59.76,94,75,9.86,PT,1650407255
247,Muzhi,65.3667,64.6667,33.13,89,63,13.29,RU,1650407255
248,Ajdabiya,30.7554,20.2263,57.96,69,0,7.23,LY,1650407255
249,Mashhad,36.297,59.6062,50.14,100,0,4.61,IR,1650407256
250,Chui,-33.6971,-53.4616,64.98,84,5,10.0,UY,1650407140
251,Bambous Virieux,-20.3428,57.7575,79.21,94,40,6.91,MU,1650407256
252,Kīhei,20.785,-156.4656,82.42,71,40,25.32,US,1650407256
253,Tessalit,20.1986,1.0114,82.54,9,7,5.75,ML,1650407257
254,Paamiut,61.994,-49.6678,19.89,66,38,32.23,GL,1650407257
255,Waipawa,-41.4122,175.5153,65.34,71,44,4.65,NZ,1650407257
256,Kangaatsiaq,68.3065,-53.4641,-1.91,87,70,7.09,GL,1650407258
257,Isangel,-19.55,169.2667,81.97,74,6,8.5,VU,1650406967
258,Corinth,37.9407,22.9573,50.9,85,95,3.69,GR,1650407258
259,Karratha,-20.7377,116.8463,78.04,49,15,6.15,AU,1650407259
260,Carnarvon,-24.8667,113.6333,64.47,72,21,9.22,AU,1650407259
261,Great Yarmouth,52.6083,1.7305,47.95,84,100,14.67,GB,1650407179
262,Pangody,65.85,74.4859,26.08,97,99,11.12,RU,1650407260
263,Bagotville,-28.9833,153.4167,73.42,88,3,9.26,AU,1650407260
264,Xinzhou,38.4092,112.7333,50.25,23,0,4.38,CN,1650407260
265,Hong Kong,22.2855,114.1577,68.38,86,100,4.0,HK,1650407203
266,Tisul',55.7611,88.3122,32.95,75,98,8.7,RU,1650407261
267,Esperance,-33.8667,121.9,57.04,68,71,8.41,AU,1650407261
268,Pangai,-19.8,-174.35,84.31,70,75,6.91,TO,1650407261
269,San Roque,36.2107,-5.3842,61.63,67,75,19.57,ES,1650407262
270,Ahipara,-35.1667,173.1667,69.78,87,83,10.65,NZ,1650407262
271,Vao,-22.6667,167.4833,75.11,71,0,5.53,NC,1650407262
272,Severo-Yeniseyskiy,60.3725,93.0408,16.05,96,100,5.5,RU,1650407263
273,Hokitika,-42.7167,170.9667,62.26,88,100,5.14,NZ,1650407263
274,Sambava,-14.2667,50.1667,76.28,85,2,9.82,MG,1650407264
275,Yamada,39.4667,141.95,46.96,58,0,5.59,JP,1650407264
276,Killybegs,54.6333,-8.45,42.51,81,9,2.3,IE,1650407264
277,Guarapuava,-25.3953,-51.4581,56.14,80,15,1.59,BR,1650407324
278,Sabzawār,36.2126,57.6819,55.63,69,1,4.7,IR,1650407325
279,Billings Metropolitan Area,45.7833,-108.5007,54.28,41,100,17.27,US,1650407052
280,Sayyan,15.1718,44.3244,61.18,28,17,4.05,YE,1650407325
281,Saint-Joseph,-21.3667,55.6167,77.38,82,42,2.24,RE,1650407326
282,Margate,51.3813,1.3862,50.31,86,100,5.01,GB,1650407326
283,Arlit,18.7369,7.3853,83.03,13,1,7.45,NE,1650407326
284,Ouadda,8.0777,22.4007,70.54,84,100,1.54,CF,1650407327
285,Ascension,30.2169,-90.9001,76.05,37,0,3.44,US,1650407327
286,Nikolskoye,59.7035,30.7861,39.09,91,23,4.9,RU,1650407327
287,Nichinan,31.6,131.3667,53.28,67,100,5.3,JP,1650407327
288,Pensacola,30.4213,-87.2169,76.05,39,0,10.36,US,1650407231
289,Lafia,8.4833,8.5167,79.93,70,88,2.26,NG,1650407328
290,Port Moresby,-9.4431,147.1797,79.12,79,96,2.3,PG,1650407328
291,Hadrut,39.52,47.0318,58.73,63,93,2.15,AZ,1650407328
292,Adoni,15.6333,77.2833,84.92,39,40,1.81,IN,1650407329
293,Mount Vernon,40.9126,-73.8371,50.63,48,75,23.0,US,1650407329
294,Tura,25.5198,90.2201,68.23,90,99,5.08,IN,1650407329
295,Mar del Plata,-38.0023,-57.5575,64.87,95,0,11.99,AR,1650407095
296,Henties Bay,-22.116,14.2845,69.89,64,33,5.08,NA,1650407330
297,Pudozh,61.8099,36.5345,33.28,97,100,1.68,RU,1650407330
298,Pundaguitan,6.3711,126.1689,81.05,79,82,8.28,PH,1650407331
299,Imbituba,-28.24,-48.6703,66.29,82,1,1.14,BR,1650407331
300,Namatanai,-3.6667,152.4333,83.14,72,48,7.72,PG,1650407331
301,Linxia Chengguanzhen,35.6003,103.2064,38.41,37,0,4.03,CN,1650407331
302,Sitka,57.0531,-135.33,53.49,32,40,11.5,US,1650407332
303,Yantal',56.8471,105.2542,24.24,84,99,6.93,RU,1650407332
304,Pimenta Bueno,-11.6725,-61.1936,78.28,84,56,3.53,BR,1650407094
305,Fortuna,40.5982,-124.1573,57.85,67,40,10.36,US,1650407332
306,Ballina,-28.8667,153.5667,73.58,79,10,5.75,AU,1650407333
307,Christchurch,-43.5333,172.6333,63.41,83,50,14.97,NZ,1650407140
308,Mahébourg,-20.4081,57.7,79.25,94,40,6.91,MU,1650407333
309,Bereket,39.2446,55.5154,63.45,47,0,9.04,TM,1650407333
310,Birjand,32.8663,59.2211,43.27,61,0,0.0,IR,1650407334
311,Inongo,-1.95,18.2667,73.83,89,100,4.43,CD,1650407334
312,Vila Velha,-20.3297,-40.2925,78.75,73,75,6.91,BR,1650407166
313,Chase,50.8165,-119.6857,53.33,59,100,5.66,CA,1650407334
314,Minador do Negrão,-9.3053,-36.8647,76.75,75,68,12.64,BR,1650407335
315,Dalvik,65.9702,-18.5286,35.53,92,92,2.82,IS,1650407335
316,Rāīwāla Bara,30.0167,78.2167,75.65,32,1,6.62,IN,1650407335
317,La Ronge,55.1001,-105.2842,37.65,56,100,16.11,CA,1650407336
318,Markova,48.6758,24.4138,34.36,85,100,4.0,UA,1650407336
319,Jeremoabo,-10.075,-38.4808,75.67,84,93,7.65,BR,1650407336
320,Kudahuvadhoo,2.6708,72.8944,83.73,67,100,4.23,MV,1650407337
321,Vestmannaeyjar,63.4427,-20.2734,44.35,80,100,25.43,IS,1650407337
322,Dikson,73.5069,80.5464,7.99,96,100,5.5,RU,1650407055
323,Upata,8.0086,-62.3989,87.37,39,73,8.68,VE,1650407337
324,Longyearbyen,78.2186,15.6401,22.84,86,75,2.3,SJ,1650407225
325,Worland,44.0169,-107.9554,65.61,22,0,24.16,US,1650407307
326,Puerto Escondido,15.85,-97.0667,88.63,66,0,6.91,MX,1650407336
327,Alugan,12.2188,125.4808,79.95,84,91,7.43,PH,1650407398
328,Nouna,12.7333,-3.8667,89.1,22,85,4.38,BF,1650407398
329,Hanoi,21.0245,105.8412,68.0,88,63,3.18,VN,1650407362
330,Vung Tau,10.346,107.0843,81.27,77,12,17.45,VN,1650407117
331,Touros,-5.1989,-35.4608,80.06,76,67,12.66,BR,1650407399
332,Shamary,57.3434,58.2199,36.18,94,100,1.36,RU,1650407399
333,Roanoke Rapids,36.4615,-77.6542,57.2,47,0,6.91,US,1650407399
334,Sakata,38.9167,139.855,42.98,65,20,6.91,JP,1650407400
335,Upernavik,72.7868,-56.1549,-1.53,88,100,6.38,GL,1650407372
336,Bonavista,48.6499,-53.1147,29.14,70,100,13.96,CA,1650407400
337,Areosa,41.7178,-8.8571,49.87,74,16,18.52,PT,1650407401
338,Ancud,-41.8697,-73.8203,49.23,83,30,4.61,CL,1650407402
339,Avarua,-21.2078,-159.775,80.65,83,75,3.44,CK,1650407403
340,Cabo San Lucas,22.8909,-109.9124,90.7,23,0,8.05,MX,1650407140
341,Phang Nga,8.4509,98.5298,78.84,94,100,3.33,TH,1650407404
342,Sola,-13.8833,167.55,82.51,73,94,13.65,VU,1650407405
343,Havøysund,70.9963,24.6622,35.83,97,93,9.53,NO,1650407406
344,Formosa,-26.1775,-58.1781,75.18,64,0,4.61,AR,1650407406
345,Walvis Bay,-22.9575,14.5053,77.95,38,7,3.44,NA,1650407408
346,La Macarena,2.1837,-73.7849,71.2,97,99,2.51,CO,1650407408
347,Rabo de Peixe,37.8,-25.5833,61.29,77,75,6.91,PT,1650407408
348,Geraldton,-28.7667,114.6,64.81,45,22,11.5,AU,1650407409
349,Puerto Cabezas,14.0351,-83.3888,85.96,66,75,9.22,NI,1650407409
350,Kalmar,56.6616,16.3616,42.96,87,56,10.0,SE,1650407410
351,Shahdol,23.2833,81.35,80.46,19,1,1.57,IN,1650407410
352,Belvedere Marittimo,39.6179,15.8617,47.12,69,2,1.3,IT,1650407411
353,Garissa,-0.4536,39.6401,80.85,77,94,14.45,KE,1650407411
354,Isola della Scala,45.2722,11.009,53.6,71,75,4.61,IT,1650407411
355,Qasigiannguit,68.8193,-51.1922,5.25,94,43,7.56,GL,1650407412
356,Nabire,-3.3667,135.4833,80.69,79,98,1.95,ID,1650407412
357,Nara,34.6851,135.8049,58.69,36,8,2.64,JP,1650407413
358,Ternate,0.8,127.4,81.27,81,98,4.18,ID,1650407413
359,Saint-Pierre,-21.3393,55.4781,78.48,81,100,5.75,RE,1650407413
360,Felanitx,39.4696,3.1483,59.02,90,3,3.65,ES,1650407414
361,Laguna de Perlas,12.3429,-83.6712,84.29,72,75,13.35,NI,1650407414
362,Sioux Falls,43.55,-96.7003,43.09,44,100,21.85,US,1650407297
363,Naze,28.3667,129.4833,63.52,65,93,5.73,JP,1650407219
364,Liverpool,53.4106,-2.9779,49.95,80,0,5.75,GB,1650407415
365,Asilah,35.465,-6.0348,60.76,76,15,10.16,MA,1650407415
366,Coffs Harbour,-30.3,153.1333,73.36,68,1,13.8,AU,1650407416
367,Milas,37.3164,27.7839,51.15,87,40,5.75,TR,1650407476
368,Martil,35.6166,-5.2752,58.96,67,20,23.02,MA,1650407476
369,Tiarei,-17.5333,-149.3333,86.02,72,6,4.5,PF,1650407477
370,Gharo,24.7424,67.5856,80.82,86,9,11.56,PK,1650407477
371,Kulhudhuffushi,6.6221,73.07,84.38,74,96,11.63,MV,1650407478
372,Chicama,-7.8447,-79.1469,63.14,74,15,8.84,PE,1650407478
373,Lashio,22.9333,97.75,63.14,88,67,0.81,MM,1650407478
374,Desaguadero,-16.5656,-69.0417,47.25,49,13,7.29,PE,1650407479
375,Otane,-39.8833,176.6333,68.02,68,17,6.17,NZ,1650407479
376,Dongsheng,39.8161,109.9776,45.01,33,0,14.47,CN,1650407479
377,Pochutla,15.7432,-96.4661,91.22,40,18,8.43,MX,1650407479
378,Marovoay,-16.1,46.6333,76.73,78,88,0.76,MG,1650407480
379,San Rafael,-34.6177,-68.3301,69.1,42,43,7.78,AR,1650407372
380,Tamandaré,-8.7597,-35.1047,77.99,86,76,6.08,BR,1650407480
381,Lakes Entrance,-37.8811,147.981,54.16,76,0,10.22,AU,1650407481
382,Itarema,-2.9248,-39.9167,78.37,86,99,8.63,BR,1650407481
383,Narsaq,60.9167,-46.05,37.62,41,5,18.54,GL,1650407481
384,Poum,-20.2333,164.0167,77.99,80,12,5.01,NC,1650407481
385,Vanderbijlpark,-26.7117,27.838,49.5,80,0,6.13,ZA,1650407482
386,Rzhishchëv,49.9689,31.0463,41.88,80,99,8.28,UA,1650407482
387,Alikovo,55.7383,46.7549,35.98,98,100,10.51,RU,1650407482
388,Santa Lucía,27.9117,-15.5407,58.77,68,100,23.02,ES,1650407354
389,Mahajanga,-15.7167,46.3167,77.02,94,20,1.14,MG,1650407483
390,Zabid,14.1951,43.3152,84.83,57,83,12.28,YE,1650407483
391,Coolum Beach,-26.5333,153.1,74.34,83,4,3.56,AU,1650407484
392,Øksfjord,70.2396,22.3479,41.07,89,61,9.22,NO,1650407484
393,Kosikha,53.3617,84.5822,34.54,62,29,6.76,RU,1650407484
394,Ocós,14.5094,-92.1933,89.78,63,9,7.87,GT,1650407484
395,San Carlos,9.6612,-68.5827,85.37,54,96,2.04,VE,1650407485
396,Qaqortoq,60.7167,-46.0333,27.64,41,1,40.87,GL,1650407485
397,Araceli,10.5529,119.9913,82.71,75,91,16.91,PH,1650407486
398,Sechura,-5.5569,-80.8222,75.69,61,89,18.88,PE,1650407486
399,Coldwater,41.9403,-85.0005,44.46,52,75,14.97,US,1650407486
400,Meadow Lake,34.8014,-106.5436,78.78,10,99,25.79,US,1650407224
401,Sompeta,18.9333,84.6,79.54,91,4,12.19,IN,1650407487
402,Biak,-0.9131,122.8766,77.95,84,97,2.77,ID,1650407487
403,Norman Wells,65.282,-126.8329,33.84,32,0,10.36,CA,1650407487
404,Tashara,55.5195,83.5094,32.79,76,24,5.84,RU,1650407487
405,Flin Flon,54.7682,-101.865,40.84,36,75,5.75,CA,1650407406
406,Bone,51.9669,12.1396,40.98,73,39,5.59,DE,1650407488
407,Bhīmavaram,16.5333,81.5333,80.62,86,2,5.37,IN,1650407488
408,Verkhnevilyuysk,63.4453,120.3167,19.09,90,100,8.97,RU,1650407489
409,Banff,51.1762,-115.5698,34.83,64,100,6.91,CA,1650407489
410,Vieste,41.8825,16.175,53.51,71,63,12.01,IT,1650407489
411,Grøa,62.65,8.7167,38.57,80,4,7.74,NO,1650407489
412,Khakhea,-24.6895,23.494,61.43,61,0,6.69,BW,1650407490
413,Jijiga,9.35,42.8,67.01,61,6,5.3,ET,1650407490
414,Qrendi,35.8347,14.4583,57.11,82,0,11.5,MT,1650407550
415,Sisimiut,66.9395,-53.6735,10.02,71,84,7.83,GL,1650407470
416,Deep River,46.1001,-77.4995,38.95,98,100,10.31,CA,1650407551
417,Auki,-8.7676,160.7034,84.65,67,39,2.59,SB,1650407551
418,Gamba,-2.65,10.0,74.86,95,100,5.59,GA,1650407551
419,Emba,48.8264,58.1442,55.69,49,30,5.35,KZ,1650407552
420,Aksu,41.1231,80.2644,62.49,19,95,0.63,CN,1650407552
421,Tayu,-6.5397,111.0518,75.67,89,100,4.0,ID,1650407552
422,Aykhal,66.0,111.5,11.12,93,100,7.29,RU,1650407553
423,Amga,60.8953,131.9608,27.28,81,100,3.42,RU,1650407553
424,Nakskov,54.8373,11.1284,42.15,72,29,9.6,DK,1650407553
425,Calvinia,-31.4707,19.776,66.11,28,7,7.45,ZA,1650407554
426,Hässleholm,56.1591,13.7664,40.78,80,65,4.83,SE,1650407554
427,Fare,-16.7,-151.0167,81.09,71,2,6.4,PF,1650407554
428,Chapais,49.7834,-74.8492,31.78,95,100,9.89,CA,1650407555
429,Port Elizabeth,-33.918,25.5701,66.31,94,0,12.66,ZA,1650407391
430,Ust-Nera,64.5667,143.2,15.96,86,88,2.77,RU,1650407537
431,Bintulu,3.1667,113.0333,73.81,94,20,5.01,MY,1650407555
432,Chokwé,-24.5333,32.9833,66.16,96,100,8.12,MZ,1650407556
433,Otradnoye,59.7775,30.8181,39.25,92,34,4.97,RU,1650407556
434,Nagykálló,47.8749,21.8408,35.38,69,23,4.56,HU,1650407556
435,Kamiiso,41.8167,140.65,46.78,66,0,3.44,JP,1650407557
436,Severomuysk,56.1481,113.4267,6.17,88,85,3.29,RU,1650407557
437,Kiryat Gat,31.61,34.7642,61.81,100,0,4.61,IL,1650407284
438,Valparaíso,-33.0393,-71.6273,58.64,85,40,8.05,CL,1650407558
439,Tamiahua,21.2667,-97.45,80.98,68,29,14.56,MX,1650407558
440,Inuvik,68.3499,-133.7218,34.66,30,0,4.61,CA,1650407558
441,Asău,46.4333,26.4,42.28,88,100,2.66,RO,1650407544
442,Aliwal North,-30.6937,26.7114,54.68,71,0,2.04,ZA,1650407559
443,Nanpiao,41.0982,120.7479,64.74,28,0,12.93,CN,1650407482
444,Sinegorsk,47.1667,142.5,39.54,69,99,14.43,RU,1650407559
445,Itapaci,-14.9508,-49.5494,77.95,60,100,0.6,BR,1650407333
446,Makīnsk,52.6292,70.4169,50.09,65,95,10.27,KZ,1650407560
447,Shenjiamen,29.9576,122.298,57.79,74,13,8.75,CN,1650407560
448,Kuching,1.55,110.3333,75.42,100,20,0.0,MY,1650407560
449,Oddur,4.1213,43.8894,78.12,74,69,12.88,SO,1650407560
450,Kiruna,67.8557,20.2251,38.32,81,100,5.75,SE,1650407561
451,Forbes,-33.3833,148.0167,57.92,75,44,9.48,AU,1650407561
452,Babu,24.4167,111.5167,62.01,88,97,1.83,CN,1650407561
453,Rehoboth,-23.3167,17.0833,59.5,34,4,4.76,NA,1650407562
454,Novosheshminsk,55.0651,51.2338,44.02,93,99,8.57,RU,1650407562
455,Port Hardy,50.6996,-127.4199,50.18,57,75,14.97,CA,1650407562
456,Abbeville,50.1,1.8333,50.49,90,94,4.54,FR,1650407563
457,Zhigansk,66.7697,123.3711,23.72,90,98,9.93,RU,1650407563
458,Gemeente Wageningen,51.9667,5.6667,52.09,74,100,9.22,NL,1650407563
459,Vardø,70.3705,31.1107,36.01,88,100,11.63,NO,1650407564
460,Payson,40.0444,-111.7321,64.38,31,75,28.77,US,1650407564
461,Girvan,55.2426,-4.8555,42.8,78,14,2.91,GB,1650407564
462,Talcahuano,-36.7167,-73.1167,56.88,94,100,5.75,CL,1650407564
463,Tanabi,-20.6264,-49.6492,80.82,49,79,5.19,BR,1650407625
464,Broome,42.2506,-75.833,39.88,78,100,25.32,US,1650407625
465,Sept-Îles,50.2001,-66.3821,30.72,96,100,26.46,CA,1650407462
466,Coahuayana Viejo,18.7333,-103.6833,85.17,52,2,6.6,MX,1650407625
467,Ocampo,21.65,-101.5,78.22,24,54,10.04,MX,1650407626
468,Vestmanna,62.1564,-7.1664,43.72,81,75,5.75,FO,1650407626
469,Gigmoto,13.7796,124.39,81.72,77,58,6.89,PH,1650407626
470,Tara,56.8944,74.371,38.86,96,100,3.83,RU,1650407627
471,Chara,56.9064,118.2631,19.29,80,87,2.48,RU,1650407627
472,Teya,60.3778,92.6267,17.58,95,100,4.99,RU,1650407627
473,Emerald,-23.5333,148.1667,73.54,78,1,4.61,AU,1650407628
474,Marabu,4.4148,114.0089,73.54,100,20,2.3,MY,1650407628
475,Makakilo City,21.3469,-158.0858,79.12,66,100,18.41,US,1650407628
476,Lamu,-2.2717,40.902,82.62,79,98,14.36,KE,1650407629
477,Tabou,4.423,-7.3528,80.26,84,95,5.28,CI,1650407629
478,Batesville,35.7698,-91.641,62.08,33,0,10.36,US,1650407629
479,Kasongo-Lunda,-6.4667,16.8167,71.11,98,100,2.26,CD,1650407630
480,Atambua,-9.1061,124.8925,75.29,78,80,2.26,ID,1650407630
481,Boralday,43.3578,76.8594,55.26,62,75,8.95,KZ,1650407630
482,Jiazi,22.8779,116.067,66.74,80,91,11.21,CN,1650407631
483,Buraidah,26.326,43.975,82.85,14,99,10.02,SA,1650407631
484,Raja,8.4596,25.678,78.85,52,100,4.23,SS,1650407417
485,Baharly,38.4362,57.4316,62.2,56,5,2.64,TM,1650407631
486,Iberia,29.9502,-91.7507,73.4,38,0,8.05,US,1650407485
487,Santa Cruz de Tenerife,28.4682,-16.2546,65.71,77,75,8.05,ES,1650407632
488,Oruzgan,32.8333,66.0,54.28,36,74,1.23,AF,1650407632
489,Lata,40.1629,-8.3327,52.07,69,6,11.72,PT,1650407632
490,Zheleznodorozhnyy,55.7503,38.0042,45.14,84,91,10.36,RU,1650407633
491,Oodweyne,9.4092,45.064,78.69,43,68,7.31,SO,1650407633
492,San Ramon,37.7799,-121.978,68.2,52,20,11.5,US,1650407633
493,Caravelas,-17.7125,-39.2481,74.79,71,8,6.51,BR,1650407633
494,Timrå,62.487,17.3257,29.88,93,61,3.44,SE,1650407634
495,Vostok,46.4856,135.8833,50.58,54,77,6.78,RU,1650407634
496,Newcastle,-32.9272,151.7765,66.09,74,0,23.02,AU,1650407342
497,Plettenberg Bay,-34.0527,23.3716,64.49,65,1,4.52,ZA,1650407635
498,Chekhov,55.1431,37.4711,44.85,95,89,10.96,RU,1650407635
499,Peterhead,57.5058,-1.7981,43.66,78,79,7.27,GB,1650407635
500,Sinaloa,25.0,-107.5,90.1,33,0,5.99,MX,1650407385
501,Ulundi,-28.3352,31.4162,54.63,95,1,3.65,ZA,1650407635
502,Guane,22.2025,-84.0875,83.25,49,17,12.95,CU,1650407636
